{"buttonState":[{"skuId":"6470924","condition":null,"buttonState":"IN_STORE_ONLY","displayText":"In-Store Only","planButtonState":null,"planDisplayText":null}],"consolidatedButtonState":null,"ispu":{"locations":[{"id":"482","name":"Chelsea (23rd and 6th)","address":"60 W 23rd St","city":"New York","state":"NY","zipCode":"10010","phone":"212-366-1373","locationFormat":"Big_Box_Store","latitude":40.74264,"longitude":-73.9927,"timeZoneId":"America/New_York","distance":0.4,"openTimesMap":{"Monday":"10:00:00.000","Tuesday":"10:00:00.000","Wednesday":"10:00:00.000","Thursday":"10:00:00.000","Friday":"10:00:00.000","Saturday":"09:00:00.000","Sunday":"10:00:00.000"},"closeTimesMap":{"Monday":"21:00:00.000","Tuesday":"21:00:00.000","Wednesday":"21:00:00.000","Thursday":"21:00:00.000","Friday":"21:00:00.000","Saturday":"22:00:00.000","Sunday":"20:00:00.000"},"curbsideOnly":false,"hasTradeinService":true},{"id":"1028","name":"Midtown Manhattan (44th and 5th)","address":"531 5th Ave","city":"New York","state":"NY","zipCode":"10017","phone":"212-808-0309","locationFormat":"Big_Box_Store","latitude":40.75484,"longitude":-73.97942,"timeZoneId":"America/New_York","distance":1.0,"openTimesMap":{"Monday":"10:00:00.000","Tuesday":"10:00:00.000","Wednesday":"10:00:00.000","Thursday":"10:00:00.000","Friday":"10:00:00.000","Saturday":"09:00:00.000","Sunday":"10:00:00.000"},"closeTimesMap":{"Monday":"21:00:00.000","Tuesday":"21:00:00.000","Wednesday":"21:00:00.000","Thursday":"21:00:00.000","Friday":"21:00:00.000","Saturday":"22:00:00.000","Sunday":"20:00:00.000"},"curbsideOnly":false,"hasTradeinService":true},{"id":"1531","name":"Union Square","address":"52 E 14th St","address2":"Number 64","city":"New York","state":"NY","zipCode":"10003","phone":"212-466-4789","locationFormat":"Big_Box_Store","latitude":40.73419,"longitude":-73.99015,"timeZoneId":"America/New_York","distance":1.0,"openTimesMap":{"Monday":"10:00:00.000","Tuesday":"10:00:00.000","Wednesday":"10:00:00.000","Thursday":"10:00:00.000","Friday":"10:00:00.000","Saturday":"09:00:00.000","Sunday":"10:00:00.000"},"closeTimesMap":{"Monday":"21:00:00.000","Tuesday":"21:00:00.000","Wednesday":"21:00:00.000","Thursday":"21:00:00.000","Friday":"21:00:00.000","Saturday":"22:00:00.000","Sunday":"20:00:00.000"},"curbsideOnly":false,"hasTradeinService":true},{"id":"609","name":"Broadway NoHo","address":"622 Broadway","city":"New York","state":"NY","zipCode":"10012","phone":"212-673-4067","locationFormat":"Big_Box_Store","latitude":40.72578,"longitude":-73.9961,"timeZoneId":"America/New_York","distance":1.6,"openTimesMap":{"Monday":"10:00:00.000","Tuesday":"10:00:00.000","Wednesday":"10:00:00.000","Thursday":"10:00:00.000","Friday":"10:00:00.000","Saturday":"09:00:00.000","Sunday":"10:00:00.000"},"closeTimesMap":{"Monday":"21:00:00.000","Tuesday":"21:00:00.000","Wednesday":"21:00:00.000","Thursday":"21:00:00.000","Friday":"21:00:00.000","Saturday":"22:00:00.000","Sunday":"20:00:00.000"},"curbsideOnly":false,"hasTradeinService":true},{"id":"1448","name":"Upper West Side (62nd and Broadway)","address":"1880 Broadway","city":"New York","state":"NY","zipCode":"10023","phone":"212-246-9734","locationFormat":"Big_Box_Store","latitude":40.77024,"longitude":-73.98172,"timeZoneId":"America/New_York","distance":1.7,"openTimesMap":{"Monday":"10:00:00.000","Tuesday":"10:00:00.000","Wednesday":"10:00:00.000","Thursday":"10:00:00.000","Friday":"10:00:00.000","Saturday":"09:00:00.000","Sunday":"10:00:00.000"},"closeTimesMap":{"Monday":"21:00:00.000","Tuesday":"21:00:00.000","Wednesday":"21:00:00.000","Thursday":"21:00:00.000","Friday":"21:00:00.000","Saturday":"22:00:00.000","Sunday":"20:00:00.000"},"curbsideOnly":false,"hasTradeinService":true},{"id":"1535","name":"Jersey City","address":"125 18th St","city":"Jersey City","state":"NJ","zipCode":"07310","phone":"201-792-8399","locationFormat":"Big_Box_Store","latitude":40.73188,"longitude":-74.03814,"timeZoneId":"America/New_York","distance":2.5,"openTimesMap":{"Monday":"10:00:00.000","Tuesday":"10:00:00.000","Wednesday":"10:00:00.000","Thursday":"10:00:00.000","Friday":"10:00:00.000","Saturday":"09:00:00.000","Sunday":"10:00:00.000"},"closeTimesMap":{"Monday":"21:00:00.000","Tuesday":"21:00:00.000","Wednesday":"21:00:00.000","Thursday":"21:00:00.000","Friday":"21:00:00.000","Saturday":"22:00:00.000","Sunday":"20:00:00.000"},"curbsideOnly":false,"hasTradeinService":true},{"id":"835","name":"86th and Lexington","address":"1280 Lexington Ave","city":"New York","state":"NY","zipCode":"10028","phone":"917-492-8870","locationFormat":"Big_Box_Store","latitude":40.77974,"longitude":-73.95566,"timeZoneId":"America/New_York","distance":3.0,"openTimesMap":{"Monday":"10:00:00.000","Tuesday":"10:00:00.000","Wednesday":"10:00:00.000","Thursday":"10:00:00.000","Friday":"10:00:00.000","Saturday":"09:00:00.000","Sunday":"10:00:00.000"},"closeTimesMap":{"Monday":"21:00:00.000","Tuesday":"21:00:00.000","Wednesday":"21:00:00.000","Thursday":"21:00:00.000","Friday":"21:00:00.000","Saturday":"22:00:00.000","Sunday":"20:00:00.000"},"curbsideOnly":false,"hasTradeinService":true},{"id":"474","name":"Secaucus","address":"925 Patterson Plank Rd","city":"Secaucus","state":"NJ","zipCode":"07094","phone":"201-325-2277","locationFormat":"Big_Box_Store","latitude":40.78131,"longitude":-74.04517,"timeZoneId":"America/New_York","distance":3.4,"openTimesMap":{"Monday":"10:00:00.000","Tuesday":"10:00:00.000","Wednesday":"10:00:00.000","Thursday":"10:00:00.000","Friday":"10:00:00.000","Saturday":"09:00:00.000","Sunday":"10:00:00.000"},"closeTimesMap":{"Monday":"21:00:00.000","Tuesday":"21:00:00.000","Wednesday":"21:00:00.000","Thursday":"21:00:00.000","Friday":"21:00:00.000","Saturday":"22:00:00.000","Sunday":"20:00:00.000"},"curbsideOnly":false,"hasTradeinService":true},{"id":"478","name":"Long Island City","address":"5001 Northern Blvd","city":"Long Island City","state":"NY","zipCode":"11101","phone":"718-626-7585","locationFormat":"Big_Box_Store","latitude":40.7536,"longitude":-73.91196,"timeZoneId":"America/New_York","distance":4.4,"openTimesMap":{"Monday":"10:00:00.000","Tuesday":"10:00:00.000","Wednesday":"10:00:00.000","Thursday":"10:00:00.000","Friday":"10:00:00.000","Saturday":"09:00:00.000","Sunday":"10:00:00.000"},"closeTimesMap":{"Monday":"21:00:00.000","Tuesday":"21:00:00.000","Wednesday":"21:00:00.000","Thursday":"21:00:00.000","Friday":"21:00:00.000","Saturday":"22:00:00.000","Sunday":"20:00:00.000"},"curbsideOnly":false,"hasTradeinService":true},{"id":"2518","name":"Atlantic Center","address":"625 Atlantic Ave","address2":"Ste A7","city":"Brooklyn","state":"NY","zipCode":"11217","phone":"718-230-7480","locationFormat":"Big_Box_Store","latitude":40.68345,"longitude":-73.97417,"timeZoneId":"America/New_York","distance":4.6,"openTimesMap":{"Monday":"10:00:00.000","Tuesday":"10:00:00.000","Wednesday":"10:00:00.000","Thursday":"10:00:00.000","Friday":"10:00:00.000","Saturday":"09:00:00.000","Sunday":"10:00:00.000"},"closeTimesMap":{"Monday":"21:00:00.000","Tuesday":"21:00:00.000","Wednesday":"21:00:00.000","Thursday":"21:00:00.000","Friday":"21:00:00.000","Saturday":"22:00:00.000","Sunday":"20:00:00.000"},"curbsideOnly":false,"hasTradeinService":true},{"id":"1217","name":"American Dream","address":"1 American Dream Way","address2":"C351","city":"East Rutherford","state":"NJ","zipCode":"07073","phone":"201-508-3768","locationFormat":"Big_Box_Store","latitude":40.80961,"longitude":-74.06782,"timeZoneId":"America/New_York","distance":5.7,"openTimesMap":{"Monday":"11:00:00.000","Tuesday":"11:00:00.000","Wednesday":"11:00:00.000","Thursday":"11:00:00.000","Friday":"11:00:00.000","Saturday":"10:00:00.000"},"closeTimesMap":{"Monday":"21:00:00.000","Tuesday":"21:00:00.000","Wednesday":"21:00:00.000","Thursday":"21:00:00.000","Friday":"22:00:00.000","Saturday":"22:00:00.000"},"curbsideOnly":false,"hasTradeinService":true},{"id":"1172","name":"Bronx Terminal Market","address":"610 Exterior St","city":"Bronx","state":"NY","zipCode":"10451","phone":"718-402-2932","locationFormat":"Big_Box_Store","latitude":40.82173,"longitude":-73.92997,"timeZoneId":"America/New_York","distance":6.1,"openTimesMap":{"Monday":"10:00:00.000","Tuesday":"10:00:00.000","Wednesday":"10:00:00.000","Thursday":"10:00:00.000","Friday":"10:00:00.000","Saturday":"09:00:00.000","Sunday":"10:00:00.000"},"closeTimesMap":{"Monday":"21:00:00.000","Tuesday":"21:00:00.000","Wednesday":"21:00:00.000","Thursday":"21:00:00.000","Friday":"21:00:00.000","Saturday":"22:00:00.000","Sunday":"20:00:00.000"},"curbsideOnly":false,"hasTradeinService":true},{"id":"483","name":"Rego Park","address":"8801 Queens Blvd","city":"Elmhurst","state":"NY","zipCode":"11373","phone":"718-393-2690","locationFormat":"Big_Box_Store","latitude":40.73541,"longitude":-73.87445,"timeZoneId":"America/New_York","distance":6.4,"openTimesMap":{"Monday":"10:00:00.000","Tuesday":"10:00:00.000","Wednesday":"10:00:00.000","Thursday":"10:00:00.000","Friday":"10:00:00.000","Saturday":"09:00:00.000","Sunday":"10:00:00.000"},"closeTimesMap":{"Monday":"21:00:00.000","Tuesday":"21:00:00.000","Wednesday":"21:00:00.000","Thursday":"21:00:00.000","Friday":"21:00:00.000","Saturday":"22:00:00.000","Sunday":"20:00:00.000"},"curbsideOnly":false,"hasTradeinService":true},{"id":"1115","name":"Flushing","address":"13107 40th Rd","address2":"Ste C300","city":"Flushing","state":"NY","zipCode":"11354","phone":"718-888-3629","locationFormat":"Big_Box_Store","latitude":40.75662,"longitude":-73.83698,"timeZoneId":"America/New_York","distance":8.3,"openTimesMap":{"Monday":"10:00:00.000","Tuesday":"10:00:00.000","Wednesday":"10:00:00.000","Thursday":"10:00:00.000","Friday":"10:00:00.000","Saturday":"09:00:00.000","Sunday":"10:00:00.000"},"closeTimesMap":{"Monday":"21:00:00.000","Tuesday":"21:00:00.000","Wednesday":"21:00:00.000","Thursday":"21:00:00.000","Friday":"21:00:00.000","Saturday":"22:00:00.000","Sunday":"20:00:00.000"},"curbsideOnly":false,"hasTradeinService":true},{"id":"1886","name":"Gateway Brooklyn","address":"369 Gateway Dr","city":"Brooklyn","state":"NY","zipCode":"11239","phone":"718-348-2739","locationFormat":"Big_Box_Store","latitude":40.65156,"longitude":-73.87267,"timeZoneId":"America/New_York","distance":9.3,"openTimesMap":{"Monday":"10:00:00.000","Tuesday":"10:00:00.000","Wednesday":"10:00:00.000","Thursday":"10:00:00.000","Friday":"10:00:00.000","Saturday":"09:00:00.000","Sunday":"10:00:00.000"},"closeTimesMap":{"Monday":"21:00:00.000","Tuesday":"21:00:00.000","Wednesday":"21:00:00.000","Thursday":"21:00:00.000","Friday":"21:00:00.000","Saturday":"22:00:00.000","Sunday":"20:00:00.000"},"curbsideOnly":false,"hasTradeinService":true},{"id":"1891","name":"Fordham Road","address":"402 E Fordham Rd","city":"Bronx","state":"NY","zipCode":"10458","phone":"718-329-8788","locationFormat":"Big_Box_Store","latitude":40.86136,"longitude":-73.89141,"timeZoneId":"America/New_York","distance":9.5,"openTimesMap":{"Monday":"10:00:00.000","Tuesday":"10:00:00.000","Wednesday":"10:00:00.000","Thursday":"10:00:00.000","Friday":"10:00:00.000","Saturday":"09:00:00.000","Sunday":"10:00:00.000"},"closeTimesMap":{"Monday":"21:00:00.000","Tuesday":"21:00:00.000","Wednesday":"21:00:00.000","Thursday":"21:00:00.000","Friday":"21:00:00.000","Saturday":"22:00:00.000","Sunday":"20:00:00.000"},"curbsideOnly":false,"hasTradeinService":true},{"id":"1261","name":"Bronx Riverdale","address":"171 W 230th St","address2":"Ste 103","city":"Bronx","state":"NY","zipCode":"10463","phone":"718-530-7720","locationFormat":"Big_Box_Store","latitude":40.87741,"longitude":-73.90492,"timeZoneId":"America/New_York","distance":10.1,"openTimesMap":{"Monday":"10:00:00.000","Tuesday":"10:00:00.000","Wednesday":"10:00:00.000","Thursday":"10:00:00.000","Friday":"10:00:00.000","Saturday":"09:00:00.000","Sunday":"10:00:00.000"},"closeTimesMap":{"Monday":"21:00:00.000","Tuesday":"21:00:00.000","Wednesday":"21:00:00.000","Thursday":"21:00:00.000","Friday":"21:00:00.000","Saturday":"22:00:00.000","Sunday":"20:00:00.000"},"curbsideOnly":false,"hasTradeinService":true},{"id":"1520","name":"Kings Plaza","address":"5102 Avenue U","address2":"Ste 0171","city":"Brooklyn","state":"NY","zipCode":"11234","phone":"718-677-8839","locationFormat":"Big_Box_Store","latitude":40.60988,"longitude":-73.9217,"timeZoneId":"America/New_York","distance":10.3,"openTimesMap":{"Monday":"10:00:00.000","Tuesday":"10:00:00.000","Wednesday":"10:00:00.000","Thursday":"10:00:00.000","Friday":"10:00:00.000","Saturday":"09:00:00.000","Sunday":"11:00:00.000"},"closeTimesMap":{"Monday":"21:00:00.000","Tuesday":"21:00:00.000","Wednesday":"21:00:00.000","Thursday":"21:00:00.000","Friday":"21:00:00.000","Saturday":"21:00:00.000","Sunday":"20:00:00.000"},"curbsideOnly":false,"hasTradeinService":true},{"id":"599","name":"Bay Parkway Brooklyn","address":"8923 Bay Pkwy","city":"Brooklyn","state":"NY","zipCode":"11214","phone":"718-265-6950","locationFormat":"Big_Box_Store","latitude":40.59367,"longitude":-73.99899,"timeZoneId":"America/New_York","distance":10.7,"openTimesMap":{"Monday":"10:00:00.000","Tuesday":"10:00:00.000","Wednesday":"10:00:00.000","Thursday":"10:00:00.000","Friday":"10:00:00.000","Saturday":"09:00:00.000","Sunday":"10:00:00.000"},"closeTimesMap":{"Monday":"21:00:00.000","Tuesday":"21:00:00.000","Wednesday":"21:00:00.000","Thursday":"21:00:00.000","Friday":"21:00:00.000","Saturday":"22:00:00.000","Sunday":"20:00:00.000"},"curbsideOnly":false,"hasTradeinService":true},{"id":"887","name":"Bergen Town Center","address":"2400 Bergen Town Ctr","city":"Paramus","state":"NJ","zipCode":"07652","phone":"201-556-1321","locationFormat":"Big_Box_Store","latitude":40.91318,"longitude":-74.05287,"timeZoneId":"America/New_York","distance":11.8,"openTimesMap":{"Monday":"10:00:00.000","Tuesday":"10:00:00.000","Wednesday":"10:00:00.000","Thursday":"10:00:00.000","Friday":"10:00:00.000","Saturday":"09:00:00.000"},"closeTimesMap":{"Monday":"21:00:00.000","Tuesday":"21:00:00.000","Wednesday":"21:00:00.000","Thursday":"21:00:00.000","Friday":"21:00:00.000","Saturday":"22:00:00.000"},"curbsideOnly":false,"hasTradeinService":true},{"id":"471","name":"Mount Vernon","address":"555 E Sandford Blvd","city":"Mount Vernon","state":"NY","zipCode":"10550","phone":"914-664-4425","locationFormat":"Big_Box_Store","latitude":40.90204,"longitude":-73.81959,"timeZoneId":"America/New_York","distance":14.0,"openTimesMap":{"Monday":"10:00:00.000","Tuesday":"10:00:00.000","Wednesday":"10:00:00.000","Thursday":"10:00:00.000","Friday":"10:00:00.000","Saturday":"09:00:00.000","Sunday":"10:00:00.000"},"closeTimesMap":{"Monday":"21:00:00.000","Tuesday":"21:00:00.000","Wednesday":"21:00:00.000","Thursday":"21:00:00.000","Friday":"21:00:00.000","Saturday":"22:00:00.000","Sunday":"20:00:00.000"},"curbsideOnly":false,"hasTradeinService":true},{"id":"468","name":"West Paterson","address":"30 Andrews Dr","city":"Woodland Park","state":"NJ","zipCode":"07424","phone":"973-812-9430","locationFormat":"Big_Box_Store","latitude":40.88746,"longitude":-74.21298,"timeZoneId":"America/New_York","distance":14.9,"openTimesMap":{"Monday":"10:00:00.000","Tuesday":"10:00:00.000","Wednesday":"10:00:00.000","Thursday":"10:00:00.000","Friday":"10:00:00.000","Saturday":"09:00:00.000","Sunday":"10:00:00.000"},"closeTimesMap":{"Monday":"21:00:00.000","Tuesday":"21:00:00.000","Wednesday":"21:00:00.000","Thursday":"21:00:00.000","Friday":"21:00:00.000","Saturday":"22:00:00.000","Sunday":"20:00:00.000"},"curbsideOnly":false,"hasTradeinService":true},{"id":"469","name":"Staten Island","address":"2795 Richmond Ave","city":"Staten Island","state":"NY","zipCode":"10314","phone":"718-698-7546","locationFormat":"Big_Box_Store","latitude":40.57675,"longitude":-74.16736,"timeZoneId":"America/New_York","distance":14.9,"openTimesMap":{"Monday":"10:00:00.000","Tuesday":"10:00:00.000","Wednesday":"10:00:00.000","Thursday":"10:00:00.000","Friday":"10:00:00.000","Saturday":"09:00:00.000","Sunday":"10:00:00.000"},"closeTimesMap":{"Monday":"21:00:00.000","Tuesday":"21:00:00.000","Wednesday":"21:00:00.000","Thursday":"21:00:00.000","Friday":"21:00:00.000","Saturday":"22:00:00.000","Sunday":"20:00:00.000"},"curbsideOnly":false,"hasTradeinService":true},{"id":"1506","name":"Vauxhall","address":"2255 Springfield Ave","city":"Vauxhall","state":"NJ","zipCode":"07088","phone":"908-206-9720","locationFormat":"Big_Box_Store","latitude":40.71636,"longitude":-74.28626,"timeZoneId":"America/New_York","distance":15.4,"openTimesMap":{"Monday":"10:00:00.000","Tuesday":"10:00:00.000","Wednesday":"10:00:00.000","Thursday":"10:00:00.000","Friday":"10:00:00.000","Saturday":"09:00:00.000","Sunday":"10:00:00.000"},"closeTimesMap":{"Monday":"21:00:00.000","Tuesday":"21:00:00.000","Wednesday":"21:00:00.000","Thursday":"21:00:00.000","Friday":"21:00:00.000","Saturday":"22:00:00.000","Sunday":"20:00:00.000"},"curbsideOnly":false,"hasTradeinService":true},{"id":"950","name":"Valley Stream","address":"6 West Cir","city":"Valley Stream","state":"NY","zipCode":"11581","phone":"516-561-7213","locationFormat":"Big_Box_Store","latitude":40.664,"longitude":-73.72411,"timeZoneId":"America/New_York","distance":15.4,"openTimesMap":{"Monday":"10:00:00.000","Tuesday":"10:00:00.000","Wednesday":"10:00:00.000","Thursday":"10:00:00.000","Friday":"10:00:00.000","Saturday":"09:00:00.000","Sunday":"10:00:00.000"},"closeTimesMap":{"Monday":"21:00:00.000","Tuesday":"21:00:00.000","Wednesday":"21:00:00.000","Thursday":"21:00:00.000","Friday":"21:00:00.000","Saturday":"22:00:00.000","Sunday":"20:00:00.000"},"curbsideOnly":false,"hasTradeinService":false},{"id":"9134","name":"VDDC 2291 PAC PERTH","address":"1061 AMBOY AVE","city":"PERTH AMBOY","state":"NJ","zipCode":"08861","phone":"999-999-9999","locationFormat":"Warehouse","latitude":40.53488,"longitude":-74.27158,"timeZoneId":"America/New_York","distance":20.7,"openTimesMap":{},"closeTimesMap":{},"curbsideOnly":false,"hasTradeinService":false},{"id":"9040","name":"Piscataway Warehouse","address":"300 Ridge Rd","city":"Piscataway","state":"NJ","zipCode":"08854","phone":"732-376-4600","locationFormat":"Warehouse","latitude":40.3723,"longitude":-74.4853,"timeZoneId":"America/New_York","distance":36.6,"openTimesMap":{"Monday":"09:00:00.000","Tuesday":"09:00:00.000","Wednesday":"09:00:00.000","Thursday":"09:00:00.000","Friday":"09:00:00.000","Saturday":"09:00:00.000"},"closeTimesMap":{"Monday":"19:00:00.000","Tuesday":"19:00:00.000","Wednesday":"19:00:00.000","Thursday":"19:00:00.000","Friday":"19:00:00.000","Saturday":"19:00:00.000"},"curbsideOnly":false,"hasTradeinService":false},{"id":"9047","name":"Bellingham Warehouse","address":"140 Depot St","city":"Bellingham","state":"MA","zipCode":"02019","phone":"508-966-5700","locationFormat":"Warehouse","latitude":42.097422,"longitude":-71.485507,"timeZoneId":"America/New_York","distance":160.0,"openTimesMap":{"Monday":"09:00:00.000","Tuesday":"09:00:00.000","Wednesday":"09:00:00.000","Thursday":"09:00:00.000","Friday":"09:00:00.000","Saturday":"09:00:00.000"},"closeTimesMap":{"Monday":"19:00:00.000","Tuesday":"19:00:00.000","Wednesday":"19:00:00.000","Thursday":"19:00:00.000","Friday":"19:00:00.000","Saturday":"19:00:00.000"},"curbsideOnly":false,"hasTradeinService":false},{"id":"9044","name":"Curtis Bay Warehouse","address":"7550 Perryman Ct","city":"Curtis Bay","state":"MD","zipCode":"21226","phone":"410-579-8869","locationFormat":"Warehouse","latitude":39.1762,"longitude":-76.54946,"timeZoneId":"America/New_York","distance":173.5,"openTimesMap":{"Monday":"09:00:00.000","Tuesday":"09:00:00.000","Wednesday":"09:00:00.000","Thursday":"09:00:00.000","Friday":"09:00:00.000","Saturday":"09:00:00.000"},"closeTimesMap":{"Monday":"19:00:00.000","Tuesday":"19:00:00.000","Wednesday":"19:00:00.000","Thursday":"19:00:00.000","Friday":"19:00:00.000","Saturday":"19:00:00.000"},"curbsideOnly":false,"hasTradeinService":false},{"id":"9116","name":"VDDC 2285 PAC BLTMRE","address":"6680 BUSINESS PKWY","city":"ELKRIDGE","state":"MD","zipCode":"21075","phone":"410-579-8869","locationFormat":"Warehouse","latitude":39.18653,"longitude":-76.77386,"timeZoneId":"America/New_York","distance":182.4,"openTimesMap":{},"closeTimesMap":{},"curbsideOnly":false,"hasTradeinService":false}],"items":[{"sku":"6470924","ispuEligible":true,"pickupEligible":true,"inStoreAvailable":true,"suppressInStorePurchaseMessaging":true,"inStoreOnly":true,"locations":[{"locationId":"482","availability":{"minDate":"2021-12-13","maxDate":"2021-12-13","displayDateType":"IN_HAND","fulfillmentType":"PICKUP","minPickupHours":1,"minPickupMinutes":60,"maxPickupTime":"20:59:00.000","availablePickupQuantity":20,"availabilityToken":"eyJmdWxmaWxsbWVudFR5cGUiOiJQSUNLVVAiLCJza3VJZCI6IjY0NzA5MjQiLCJzdG9ja1R5cGUiOiJORVciLCJyZXF1ZXN0ZWRRdWFudGl0eSI6MSwicGlja3VwTG9jYXRpb25JZCI6IjQ4MiIsImNyZWF0ZWRUaW1lc3RhbXAiOiIyMDIxLTEyLTEzVDE2OjU2OjAzLjEzMFoifQ=="},"inStoreAvailability":{"availableInStoreQuantity":20,"minDate":"2021-12-13","maxDate":"2021-12-13"},"onShelfDisplay":false},{"locationId":"1028","availability":{"minDate":"2021-12-13","maxDate":"2021-12-13","displayDateType":"IN_HAND","fulfillmentType":"PICKUP","minPickupHours":1,"minPickupMinutes":60,"maxPickupTime":"20:59:00.000","availablePickupQuantity":9,"availabilityToken":"eyJmdWxmaWxsbWVudFR5cGUiOiJQSUNLVVAiLCJza3VJZCI6IjY0NzA5MjQiLCJzdG9ja1R5cGUiOiJORVciLCJyZXF1ZXN0ZWRRdWFudGl0eSI6MSwicGlja3VwTG9jYXRpb25JZCI6IjEwMjgiLCJjcmVhdGVkVGltZXN0YW1wIjoiMjAyMS0xMi0xM1QxNjo1NjowMy4xMzBaIn0="},"inStoreAvailability":{"availableInStoreQuantity":9,"minDate":"2021-12-13","maxDate":"2021-12-13"},"onShelfDisplay":false},{"locationId":"1531","availability":{"minDate":"2021-12-13","maxDate":"2021-12-13","displayDateType":"IN_HAND","fulfillmentType":"PICKUP","minPickupHours":1,"minPickupMinutes":60,"maxPickupTime":"20:59:00.000","availablePickupQuantity":8,"availabilityToken":"eyJmdWxmaWxsbWVudFR5cGUiOiJQSUNLVVAiLCJza3VJZCI6IjY0NzA5MjQiLCJzdG9ja1R5cGUiOiJORVciLCJyZXF1ZXN0ZWRRdWFudGl0eSI6MSwicGlja3VwTG9jYXRpb25JZCI6IjE1MzEiLCJjcmVhdGVkVGltZXN0YW1wIjoiMjAyMS0xMi0xM1QxNjo1NjowMy4xMzBaIn0="},"inStoreAvailability":{"availableInStoreQuantity":8,"minDate":"2021-12-13","maxDate":"2021-12-13"},"onShelfDisplay":false},{"locationId":"609","availability":{"minDate":"2021-12-13","maxDate":"2021-12-13","displayDateType":"IN_HAND","fulfillmentType":"PICKUP","minPickupHours":1,"minPickupMinutes":60,"maxPickupTime":"20:59:00.000","availablePickupQuantity":15,"availabilityToken":"eyJmdWxmaWxsbWVudFR5cGUiOiJQSUNLVVAiLCJza3VJZCI6IjY0NzA5MjQiLCJzdG9ja1R5cGUiOiJORVciLCJyZXF1ZXN0ZWRRdWFudGl0eSI6MSwicGlja3VwTG9jYXRpb25JZCI6IjYwOSIsImNyZWF0ZWRUaW1lc3RhbXAiOiIyMDIxLTEyLTEzVDE2OjU2OjAzLjEzMFoifQ=="},"inStoreAvailability":{"availableInStoreQuantity":15,"minDate":"2021-12-13","maxDate":"2021-12-13"},"onShelfDisplay":false},{"locationId":"1448","availability":{"minDate":"2021-12-13","maxDate":"2021-12-13","displayDateType":"IN_HAND","fulfillmentType":"PICKUP","minPickupHours":1,"minPickupMinutes":60,"maxPickupTime":"20:59:00.000","availablePickupQuantity":22,"availabilityToken":"eyJmdWxmaWxsbWVudFR5cGUiOiJQSUNLVVAiLCJza3VJZCI6IjY0NzA5MjQiLCJzdG9ja1R5cGUiOiJORVciLCJyZXF1ZXN0ZWRRdWFudGl0eSI6MSwicGlja3VwTG9jYXRpb25JZCI6IjE0NDgiLCJjcmVhdGVkVGltZXN0YW1wIjoiMjAyMS0xMi0xM1QxNjo1NjowMy4xMzBaIn0="},"inStoreAvailability":{"availableInStoreQuantity":22,"minDate":"2021-12-13","maxDate":"2021-12-13"},"onShelfDisplay":false},{"locationId":"1535","availability":{"minDate":"2021-12-13","maxDate":"2021-12-13","displayDateType":"IN_HAND","fulfillmentType":"PICKUP","minPickupHours":1,"minPickupMinutes":60,"maxPickupTime":"20:59:00.000","availablePickupQuantity":9,"availabilityToken":"eyJmdWxmaWxsbWVudFR5cGUiOiJQSUNLVVAiLCJza3VJZCI6IjY0NzA5MjQiLCJzdG9ja1R5cGUiOiJORVciLCJyZXF1ZXN0ZWRRdWFudGl0eSI6MSwicGlja3VwTG9jYXRpb25JZCI6IjE1MzUiLCJjcmVhdGVkVGltZXN0YW1wIjoiMjAyMS0xMi0xM1QxNjo1NjowMy4xMzBaIn0="},"inStoreAvailability":{"availableInStoreQuantity":9,"minDate":"2021-12-13","maxDate":"2021-12-13"},"onShelfDisplay":false},{"locationId":"835","availability":{"minDate":"2021-12-13","maxDate":"2021-12-13","displayDateType":"IN_HAND","fulfillmentType":"PICKUP","minPickupHours":1,"minPickupMinutes":60,"maxPickupTime":"20:59:00.000","availablePickupQuantity":15,"availabilityToken":"eyJmdWxmaWxsbWVudFR5cGUiOiJQSUNLVVAiLCJza3VJZCI6IjY0NzA5MjQiLCJzdG9ja1R5cGUiOiJORVciLCJyZXF1ZXN0ZWRRdWFudGl0eSI6MSwicGlja3VwTG9jYXRpb25JZCI6IjgzNSIsImNyZWF0ZWRUaW1lc3RhbXAiOiIyMDIxLTEyLTEzVDE2OjU2OjAzLjEzMFoifQ=="},"inStoreAvailability":{"availableInStoreQuantity":15,"minDate":"2021-12-13","maxDate":"2021-12-13"},"onShelfDisplay":false},{"locationId":"474","availability":{"minDate":"2021-12-13","maxDate":"2021-12-13","displayDateType":"IN_HAND","fulfillmentType":"PICKUP","minPickupHours":1,"minPickupMinutes":60,"maxPickupTime":"20:59:00.000","availablePickupQuantity":15,"availabilityToken":"eyJmdWxmaWxsbWVudFR5cGUiOiJQSUNLVVAiLCJza3VJZCI6IjY0NzA5MjQiLCJzdG9ja1R5cGUiOiJORVciLCJyZXF1ZXN0ZWRRdWFudGl0eSI6MSwicGlja3VwTG9jYXRpb25JZCI6IjQ3NCIsImNyZWF0ZWRUaW1lc3RhbXAiOiIyMDIxLTEyLTEzVDE2OjU2OjAzLjEzMFoifQ=="},"inStoreAvailability":{"availableInStoreQuantity":15,"minDate":"2021-12-13","maxDate":"2021-12-13"},"onShelfDisplay":false},{"locationId":"478","onShelfDisplay":false},{"locationId":"2518","availability":{"minDate":"2021-12-13","maxDate":"2021-12-13","displayDateType":"IN_HAND","fulfillmentType":"PICKUP","minPickupHours":1,"minPickupMinutes":60,"maxPickupTime":"20:59:00.000","availablePickupQuantity":15,"availabilityToken":"eyJmdWxmaWxsbWVudFR5cGUiOiJQSUNLVVAiLCJza3VJZCI6IjY0NzA5MjQiLCJzdG9ja1R5cGUiOiJORVciLCJyZXF1ZXN0ZWRRdWFudGl0eSI6MSwicGlja3VwTG9jYXRpb25JZCI6IjI1MTgiLCJjcmVhdGVkVGltZXN0YW1wIjoiMjAyMS0xMi0xM1QxNjo1NjowMy4xMzBaIn0="},"inStoreAvailability":{"availableInStoreQuantity":15,"minDate":"2021-12-13","maxDate":"2021-12-13"},"onShelfDisplay":false},{"locationId":"1217","onShelfDisplay":false},{"locationId":"1172","onShelfDisplay":false},{"locationId":"483","availability":{"minDate":"2021-12-13","maxDate":"2021-12-13","displayDateType":"IN_HAND","fulfillmentType":"PICKUP","minPickupHours":1,"minPickupMinutes":60,"maxPickupTime":"20:59:00.000","availablePickupQuantity":1,"availabilityToken":"eyJmdWxmaWxsbWVudFR5cGUiOiJQSUNLVVAiLCJza3VJZCI6IjY0NzA5MjQiLCJzdG9ja1R5cGUiOiJORVciLCJyZXF1ZXN0ZWRRdWFudGl0eSI6MSwicGlja3VwTG9jYXRpb25JZCI6IjQ4MyIsImNyZWF0ZWRUaW1lc3RhbXAiOiIyMDIxLTEyLTEzVDE2OjU2OjAzLjEzMFoifQ=="},"inStoreAvailability":{"availableInStoreQuantity":1,"minDate":"2021-12-13","maxDate":"2021-12-13"},"onShelfDisplay":false},{"locationId":"1115","availability":{"minDate":"2021-12-13","maxDate":"2021-12-13","displayDateType":"IN_HAND","fulfillmentType":"PICKUP","minPickupHours":1,"minPickupMinutes":60,"maxPickupTime":"20:59:00.000","availablePickupQuantity":2,"availabilityToken":"eyJmdWxmaWxsbWVudFR5cGUiOiJQSUNLVVAiLCJza3VJZCI6IjY0NzA5MjQiLCJzdG9ja1R5cGUiOiJORVciLCJyZXF1ZXN0ZWRRdWFudGl0eSI6MSwicGlja3VwTG9jYXRpb25JZCI6IjExMTUiLCJjcmVhdGVkVGltZXN0YW1wIjoiMjAyMS0xMi0xM1QxNjo1NjowMy4xMzBaIn0="},"inStoreAvailability":{"availableInStoreQuantity":2,"minDate":"2021-12-13","maxDate":"2021-12-13"},"onShelfDisplay":false},{"locationId":"1886","onShelfDisplay":false},{"locationId":"1891","availability":{"minDate":"2021-12-13","maxDate":"2021-12-13","displayDateType":"IN_HAND","fulfillmentType":"PICKUP","minPickupHours":1,"minPickupMinutes":60,"maxPickupTime":"20:59:00.000","availablePickupQuantity":16,"availabilityToken":"eyJmdWxmaWxsbWVudFR5cGUiOiJQSUNLVVAiLCJza3VJZCI6IjY0NzA5MjQiLCJzdG9ja1R5cGUiOiJORVciLCJyZXF1ZXN0ZWRRdWFudGl0eSI6MSwicGlja3VwTG9jYXRpb25JZCI6IjE4OTEiLCJjcmVhdGVkVGltZXN0YW1wIjoiMjAyMS0xMi0xM1QxNjo1NjowMy4xMzBaIn0="},"inStoreAvailability":{"availableInStoreQuantity":16,"minDate":"2021-12-13","maxDate":"2021-12-13"},"onShelfDisplay":false},{"locationId":"1261","onShelfDisplay":false},{"locationId":"1520","availability":{"minDate":"2021-12-13","maxDate":"2021-12-13","displayDateType":"IN_HAND","fulfillmentType":"PICKUP","minPickupHours":1,"minPickupMinutes":60,"maxPickupTime":"20:59:00.000","availablePickupQuantity":7,"availabilityToken":"eyJmdWxmaWxsbWVudFR5cGUiOiJQSUNLVVAiLCJza3VJZCI6IjY0NzA5MjQiLCJzdG9ja1R5cGUiOiJORVciLCJyZXF1ZXN0ZWRRdWFudGl0eSI6MSwicGlja3VwTG9jYXRpb25JZCI6IjE1MjAiLCJjcmVhdGVkVGltZXN0YW1wIjoiMjAyMS0xMi0xM1QxNjo1NjowMy4xMzBaIn0="},"inStoreAvailability":{"availableInStoreQuantity":7,"minDate":"2021-12-13","maxDate":"2021-12-13"},"onShelfDisplay":false},{"locationId":"599","availability":{"minDate":"2021-12-13","maxDate":"2021-12-13","displayDateType":"IN_HAND","fulfillmentType":"PICKUP","minPickupHours":1,"minPickupMinutes":60,"maxPickupTime":"20:59:00.000","availablePickupQuantity":3,"availabilityToken":"eyJmdWxmaWxsbWVudFR5cGUiOiJQSUNLVVAiLCJza3VJZCI6IjY0NzA5MjQiLCJzdG9ja1R5cGUiOiJORVciLCJyZXF1ZXN0ZWRRdWFudGl0eSI6MSwicGlja3VwTG9jYXRpb25JZCI6IjU5OSIsImNyZWF0ZWRUaW1lc3RhbXAiOiIyMDIxLTEyLTEzVDE2OjU2OjAzLjEzMFoifQ=="},"inStoreAvailability":{"availableInStoreQuantity":3,"minDate":"2021-12-13","maxDate":"2021-12-13"},"onShelfDisplay":false},{"locationId":"887","availability":{"minDate":"2021-12-13","maxDate":"2021-12-13","displayDateType":"IN_HAND","fulfillmentType":"PICKUP","minPickupHours":1,"minPickupMinutes":60,"maxPickupTime":"20:59:00.000","availablePickupQuantity":10,"availabilityToken":"eyJmdWxmaWxsbWVudFR5cGUiOiJQSUNLVVAiLCJza3VJZCI6IjY0NzA5MjQiLCJzdG9ja1R5cGUiOiJORVciLCJyZXF1ZXN0ZWRRdWFudGl0eSI6MSwicGlja3VwTG9jYXRpb25JZCI6Ijg4NyIsImNyZWF0ZWRUaW1lc3RhbXAiOiIyMDIxLTEyLTEzVDE2OjU2OjAzLjEzMFoifQ=="},"inStoreAvailability":{"availableInStoreQuantity":10,"minDate":"2021-12-13","maxDate":"2021-12-13"},"onShelfDisplay":false},{"locationId":"471","availability":{"minDate":"2021-12-13","maxDate":"2021-12-13","displayDateType":"IN_HAND","fulfillmentType":"PICKUP","minPickupHours":1,"minPickupMinutes":60,"maxPickupTime":"20:59:00.000","availablePickupQuantity":17,"availabilityToken":"eyJmdWxmaWxsbWVudFR5cGUiOiJQSUNLVVAiLCJza3VJZCI6IjY0NzA5MjQiLCJzdG9ja1R5cGUiOiJORVciLCJyZXF1ZXN0ZWRRdWFudGl0eSI6MSwicGlja3VwTG9jYXRpb25JZCI6IjQ3MSIsImNyZWF0ZWRUaW1lc3RhbXAiOiIyMDIxLTEyLTEzVDE2OjU2OjAzLjEzMFoifQ=="},"inStoreAvailability":{"availableInStoreQuantity":17,"minDate":"2021-12-13","maxDate":"2021-12-13"},"onShelfDisplay":false},{"locationId":"468","availability":{"minDate":"2021-12-13","maxDate":"2021-12-13","displayDateType":"IN_HAND","fulfillmentType":"PICKUP","minPickupHours":1,"minPickupMinutes":60,"maxPickupTime":"20:59:00.000","availablePickupQuantity":1,"availabilityToken":"eyJmdWxmaWxsbWVudFR5cGUiOiJQSUNLVVAiLCJza3VJZCI6IjY0NzA5MjQiLCJzdG9ja1R5cGUiOiJORVciLCJyZXF1ZXN0ZWRRdWFudGl0eSI6MSwicGlja3VwTG9jYXRpb25JZCI6IjQ2OCIsImNyZWF0ZWRUaW1lc3RhbXAiOiIyMDIxLTEyLTEzVDE2OjU2OjE2LjQ1NFoifQ=="},"inStoreAvailability":{"availableInStoreQuantity":1,"minDate":"2021-12-13","maxDate":"2021-12-13"},"onShelfDisplay":false},{"locationId":"469","availability":{"minDate":"2021-12-13","maxDate":"2021-12-13","displayDateType":"IN_HAND","fulfillmentType":"PICKUP","minPickupHours":1,"minPickupMinutes":60,"maxPickupTime":"20:59:00.000","availablePickupQuantity":24,"availabilityToken":"eyJmdWxmaWxsbWVudFR5cGUiOiJQSUNLVVAiLCJza3VJZCI6IjY0NzA5MjQiLCJzdG9ja1R5cGUiOiJORVciLCJyZXF1ZXN0ZWRRdWFudGl0eSI6MSwicGlja3VwTG9jYXRpb25JZCI6IjQ2OSIsImNyZWF0ZWRUaW1lc3RhbXAiOiIyMDIxLTEyLTEzVDE2OjU2OjE2LjQ1NFoifQ=="},"inStoreAvailability":{"availableInStoreQuantity":24,"minDate":"2021-12-13","maxDate":"2021-12-13"},"onShelfDisplay":false},{"locationId":"1506","onShelfDisplay":false},{"locationId":"950","availability":{"minDate":"2021-12-13","maxDate":"2021-12-13","displayDateType":"IN_HAND","fulfillmentType":"PICKUP","minPickupHours":1,"minPickupMinutes":60,"maxPickupTime":"20:59:00.000","availablePickupQuantity":4,"availabilityToken":"eyJmdWxmaWxsbWVudFR5cGUiOiJQSUNLVVAiLCJza3VJZCI6IjY0NzA5MjQiLCJzdG9ja1R5cGUiOiJORVciLCJyZXF1ZXN0ZWRRdWFudGl0eSI6MSwicGlja3VwTG9jYXRpb25JZCI6Ijk1MCIsImNyZWF0ZWRUaW1lc3RhbXAiOiIyMDIxLTEyLTEzVDE2OjU2OjAzLjEzMFoifQ=="},"inStoreAvailability":{"availableInStoreQuantity":4,"minDate":"2021-12-13","maxDate":"2021-12-13"},"onShelfDisplay":false},{"locationId":"9134","onShelfDisplay":false},{"locationId":"9040","onShelfDisplay":false},{"locationId":"9047","onShelfDisplay":false},{"locationId":"9044","onShelfDisplay":false},{"locationId":"9116","onShelfDisplay":false}],"itemSeqNumber":"8","isTradein":false}]}}